,X,long,lat,site
1,11,-123.045576,49.471983,Capilano Watershed
2,1,-122.164246,44.232252,HJ Andrews Experimental Forest LTER
3,5536,-72.17865,42.53746,Harvard Forest LTER
4,4000,-105.56,40.03941,Niwot Ridge LTER
5,6349,-83.4305,35.04689,Coweeta LTER
6,11069,-110.713953,32.415316,Mount Bigelow
7,2712,-65.81706,18.32302,Luquillo LTER
8,76115,-85.610972,10.843417,Parque Nacional Santa Rosa
9,16897,-79.847331,9.160469,Barro Colorado Island
